{
    "data": [
        {
            "id": "202",
            "type": "addresses",
            "attributes": {
                "id": 202,
                "name": "Willow Austin",
                "flat_no": "Est ut amet fugit ",
                "address": "Est quo atque rerum",
                "address_type": "home",
                "address_line_2": "Asperiores dignissim",
                "zip_code": "760001",
                "phone_number": "9234343433",
                "latitude": null,
                "longitude": null,
                "address_for": "billing_and_shipping",
                "is_default": false,
                "city": "Ab dolorem est et ne",
                "state": "LADAKH",
                "country": "india",
                "landmark": null,
                "created_at": "2022-09-12T19:53:59.398Z",
                "updated_at": "2022-09-12T19:53:59.398Z",
                "address_state_id": 37
            }
        },
        {
            "id": "201",
            "type": "addresses",
            "attributes": {
                "id": 201,
                "name": "Willow Austin",
                "flat_no": "Est ut amet fugit ",
                "address": "Est quo atque rerum",
                "address_type": "home",
                "address_line_2": "Asperiores dignissim",
                "zip_code": "760001",
                "phone_number": "9234343433",
                "latitude": null,
                "longitude": null,
                "address_for": "billing_and_shipping",
                "is_default": false,
                "city": "Ab dolorem est et ne",
                "state": "LADAKH",
                "country": "india",
                "landmark": null,
                "created_at": "2022-09-12T19:31:00.218Z",
                "updated_at": "2022-09-12T19:31:00.218Z",
                "address_state_id": 37
            }
        },
        {
            "id": "133",
            "type": "addresses",
            "attributes": {
                "id": 133,
                "name": "Willow Austin",
                "flat_no": "Est ut amet fugit ",
                "address": "Est quo atque rerum",
                "address_type": "home",
                "address_line_2": "Asperiores dignissim",
                "zip_code": "760001",
                "phone_number": "9234343433",
                "latitude": null,
                "longitude": null,
                "address_for": "billing_and_shipping",
                "is_default": false,
                "city": "Ab dolorem est et ne",
                "state": "LADAKH",
                "country": "india",
                "landmark": null,
                "created_at": "2022-08-26T04:36:59.594Z",
                "updated_at": "2022-08-26T04:36:59.594Z",
                "address_state_id": 37
            }
        },
        {
            "id": "132",
            "type": "addresses",
            "attributes": {
                "id": 132,
                "name": "Willow Austin",
                "flat_no": "Est ut amet fugit ",
                "address": "Est quo atque rerum",
                "address_type": "home",
                "address_line_2": "Asperiores dignissim",
                "zip_code": "760001",
                "phone_number": "9234343433",
                "latitude": null,
                "longitude": null,
                "address_for": "billing_and_shipping",
                "is_default": false,
                "city": "Ab dolorem est et ne",
                "state": "LADAKH",
                "country": "india",
                "landmark": null,
                "created_at": "2022-08-25T18:44:18.302Z",
                "updated_at": "2022-08-25T18:44:18.302Z",
                "address_state_id": 37
            }
        },
        {
            "id": "131",
            "type": "addresses",
            "attributes": {
                "id": 131,
                "name": "Willow Austin",
                "flat_no": "Est ut amet fugit ",
                "address": "Est quo atque rerum",
                "address_type": "home",
                "address_line_2": "Asperiores dignissim",
                "zip_code": "760001",
                "phone_number": "9234343433",
                "latitude": null,
                "longitude": null,
                "address_for": "billing_and_shipping",
                "is_default": false,
                "city": "Ab dolorem est et ne",
                "state": "LADAKH",
                "country": "india",
                "landmark": null,
                "created_at": "2022-08-25T18:39:26.444Z",
                "updated_at": "2022-08-25T18:39:26.444Z",
                "address_state_id": 37
            }
        },
        {
            "id": "130",
            "type": "addresses",
            "attributes": {
                "id": 130,
                "name": "Willow Austin",
                "flat_no": "Est ut amet fugit ",
                "address": "Est quo atque rerum",
                "address_type": "home",
                "address_line_2": "Asperiores dignissim",
                "zip_code": "760001",
                "phone_number": "9234343433",
                "latitude": null,
                "longitude": null,
                "address_for": "billing_and_shipping",
                "is_default": false,
                "city": "Ab dolorem est et ne",
                "state": "LADAKH",
                "country": "india",
                "landmark": null,
                "created_at": "2022-08-25T18:24:14.398Z",
                "updated_at": "2022-08-25T18:24:14.398Z",
                "address_state_id": 37
            }
        },
        {
            "id": "129",
            "type": "addresses",
            "attributes": {
                "id": 129,
                "name": "Willow Austin",
                "flat_no": "Est ut amet fugit ",
                "address": "Est quo atque rerum",
                "address_type": "home",
                "address_line_2": "Asperiores dignissim",
                "zip_code": "760001",
                "phone_number": "9234343433",
                "latitude": null,
                "longitude": null,
                "address_for": "billing_and_shipping",
                "is_default": false,
                "city": "Ab dolorem est et ne",
                "state": "LADAKH",
                "country": "india",
                "landmark": null,
                "created_at": "2022-08-25T18:18:29.795Z",
                "updated_at": "2022-08-25T18:18:29.795Z",
                "address_state_id": 37
            }
        },
        {
            "id": "128",
            "type": "addresses",
            "attributes": {
                "id": 128,
                "name": "Willow Austin",
                "flat_no": "Est ut amet fugit ",
                "address": "Est quo atque rerum",
                "address_type": "home",
                "address_line_2": "Asperiores dignissim",
                "zip_code": "760001",
                "phone_number": "9234343433",
                "latitude": null,
                "longitude": null,
                "address_for": "billing_and_shipping",
                "is_default": false,
                "city": "Ab dolorem est et ne",
                "state": "LADAKH",
                "country": "india",
                "landmark": null,
                "created_at": "2022-08-25T18:12:54.110Z",
                "updated_at": "2022-08-25T18:12:54.110Z",
                "address_state_id": 37
            }
        },
        {
            "id": "127",
            "type": "addresses",
            "attributes": {
                "id": 127,
                "name": "Willow Austin",
                "flat_no": "Est ut amet fugit ",
                "address": "Est quo atque rerum",
                "address_type": "home",
                "address_line_2": "Asperiores dignissim",
                "zip_code": "760001",
                "phone_number": "9234343433",
                "latitude": null,
                "longitude": null,
                "address_for": "billing_and_shipping",
                "is_default": false,
                "city": "Ab dolorem est et ne",
                "state": "LADAKH",
                "country": "india",
                "landmark": null,
                "created_at": "2022-08-25T18:11:28.893Z",
                "updated_at": "2022-08-25T18:11:28.893Z",
                "address_state_id": 37
            }
        },
        {
            "id": "126",
            "type": "addresses",
            "attributes": {
                "id": 126,
                "name": "Willow Austin",
                "flat_no": "Est ut amet fugit ",
                "address": "Est quo atque rerum",
                "address_type": "home",
                "address_line_2": "Asperiores dignissim",
                "zip_code": "760001",
                "phone_number": "9234343433",
                "latitude": null,
                "longitude": null,
                "address_for": "billing_and_shipping",
                "is_default": false,
                "city": "Ab dolorem est et ne",
                "state": "LADAKH",
                "country": "india",
                "landmark": null,
                "created_at": "2022-08-25T18:00:00.528Z",
                "updated_at": "2022-08-25T18:00:00.528Z",
                "address_state_id": 37
            }
        },
        {
            "id": "125",
            "type": "addresses",
            "attributes": {
                "id": 125,
                "name": "Willow Austin",
                "flat_no": "Est ut amet fugit ",
                "address": "Est quo atque rerum",
                "address_type": "home",
                "address_line_2": "Asperiores dignissim",
                "zip_code": "760001",
                "phone_number": "9234343433",
                "latitude": null,
                "longitude": null,
                "address_for": "billing_and_shipping",
                "is_default": false,
                "city": "Ab dolorem est et ne",
                "state": "LADAKH",
                "country": "india",
                "landmark": null,
                "created_at": "2022-08-25T17:56:15.016Z",
                "updated_at": "2022-08-25T17:56:15.016Z",
                "address_state_id": 37
            }
        },
        {
            "id": "124",
            "type": "addresses",
            "attributes": {
                "id": 124,
                "name": "Willow Austin",
                "flat_no": "Est ut amet fugit ",
                "address": "Est quo atque rerum",
                "address_type": "home",
                "address_line_2": "Asperiores dignissim",
                "zip_code": "760001",
                "phone_number": "9234343433",
                "latitude": null,
                "longitude": null,
                "address_for": "billing_and_shipping",
                "is_default": false,
                "city": "Ab dolorem est et ne",
                "state": "LADAKH",
                "country": "india",
                "landmark": null,
                "created_at": "2022-08-25T17:53:45.932Z",
                "updated_at": "2022-08-25T17:53:45.932Z",
                "address_state_id": 37
            }
        },
        {
            "id": "72",
            "type": "addresses",
            "attributes": {
                "id": 72,
                "name": "Willow Austin",
                "flat_no": "Est ut amet fugit ",
                "address": "Est quo atque rerum",
                "address_type": "home",
                "address_line_2": "Asperiores dignissim",
                "zip_code": "760001",
                "phone_number": "9234343433",
                "latitude": null,
                "longitude": null,
                "address_for": "billing_and_shipping",
                "is_default": false,
                "city": "Ab dolorem est et ne",
                "state": "LADAKH",
                "country": "india",
                "landmark": null,
                "created_at": "2022-08-23T10:08:57.662Z",
                "updated_at": "2022-08-23T10:08:57.662Z",
                "address_state_id": 37
            }
        },
        {
            "id": "70",
            "type": "addresses",
            "attributes": {
                "id": 70,
                "name": "Willow Austin",
                "flat_no": "Est ut amet fugit ",
                "address": "Est quo atque rerum",
                "address_type": "home",
                "address_line_2": "Asperiores dignissim",
                "zip_code": "760001",
                "phone_number": "9234343433",
                "latitude": null,
                "longitude": null,
                "address_for": "billing_and_shipping",
                "is_default": false,
                "city": "Ab dolorem est et ne",
                "state": "LADAKH",
                "country": "india",
                "landmark": null,
                "created_at": "2022-08-23T09:38:41.450Z",
                "updated_at": "2022-08-23T09:38:41.450Z",
                "address_state_id": 37
            }
        },
        {
            "id": "34",
            "type": "addresses",
            "attributes": {
                "id": 34,
                "name": "Willow Austin",
                "flat_no": "Est ut amet fugit ",
                "address": "Est quo atque rerum",
                "address_type": "home",
                "address_line_2": "Asperiores dignissim",
                "zip_code": "760001",
                "phone_number": "9234343433",
                "latitude": null,
                "longitude": null,
                "address_for": "billing_and_shipping",
                "is_default": false,
                "city": "Ab dolorem est et ne",
                "state": "LADAKH",
                "country": "india",
                "landmark": null,
                "created_at": "2022-08-09T14:43:12.667Z",
                "updated_at": "2022-08-09T14:43:12.667Z",
                "address_state_id": 37
            }
        },
        {
            "id": "33",
            "type": "addresses",
            "attributes": {
                "id": 33,
                "name": "Stephen Riggs",
                "flat_no": "Voluptatibus aute do",
                "address": "Ullamco explicabo E",
                "address_type": "home",
                "address_line_2": "Distinctio Voluptas",
                "zip_code": "760001",
                "phone_number": "8314444444",
                "latitude": null,
                "longitude": null,
                "address_for": "billing_and_shipping",
                "is_default": true,
                "city": "sfsdfsd",
                "state": "LADAKH",
                "country": "india",
                "landmark": null,
                "created_at": "2022-08-09T14:34:55.740Z",
                "updated_at": "2022-08-09T14:34:55.740Z",
                "address_state_id": 37
            }
        }
    ]
}
